{
"TypeName":"景点",
"Infolist":[
{
"Title":"蜈支洲岛",
"PicUrl":"Scene7.jpg",
    "Location":{"lat":"18.315233","lng":"109.774859"},
    "Level":"5",
    "LevelDesc":"中国最美的海滩海水",
"Desc":"蜈支洲岛又名情人岛，坐落在三亚市北部的海棠湾内，四周海域毫无污染，海水清澈透明，最高能见度达27 米。海底世界五颜六色的热带鱼 和形态各异的珊瑚， 被誉为国内最佳潜水基地。蜈支洲岛还拥有众多的海上娱乐项目：潜水、摩托艇、拖曳伞、香蕉船、半潜观光船、快艇海钓等等。",
"KeyID":"00004103",
"DataPath":"00004103json.txt",
"recommend":"0"
},
{
"Title":"亚龙湾旅游度假区",
"PicUrl":"Scene1.jpg",
    "Location":{"lat":"18.237459","lng":"109.653456"},
    "Level":"5",
    "LevelDesc":"阳光、沙滩、顶级设施",
"Desc":"海南最南端的月牙形海湾，被青山环绕，被誉为“天下第一湾”被《国家地理杂志》评为“中国最美八大湾之一”，聚集了许多全球著名度假酒店。亚龙湾集海洋、沙滩、阳光、绿色、新鲜空气于一体。海水清澈，海湾水温常保持23度以上，全年阳光灿烂。亚龙湾内各类豪华别墅、会议中心、度假村云集，还建有海底观光世界、海上运动中心、高尔夫球场、游艇俱乐部等国际一流配套设施。",
"KeyID":"00004101",
"DataPath":"00004101json.txt",
"recommend":"0"
},
{
"Title":"亚热带天堂森林公园",
"PicUrl":"Scene5.jpg",
    "Location":{"lat":"18.256418","lng":"109.663104"},
    "Level":"5",
    "LevelDesc":"非诚勿扰Ⅱ取景地",
"Desc":"一流的海滨观光度假森林公园 ，分东园和西园，犹如伸展的双臂环抱着“天下第一湾”，是亚龙湾度假旅游区由滨海向山地、由海洋向森林、由蓝色向绿色的延伸。公园里有登山探险、野外拓展、休闲观光、养生度假、科普教育、民俗文化体验等多种玩法。在玩乐的同时，呼吸自然氧吧的空气，给生活带来更多的健康。公园里的盘山路、石阶、栈道、亭台楼阁等全部零星地隐蔽在丛林深处，游玩其中别有一番趣味。",
"KeyID":"00004102",
"DataPath":"00004102json.txt",
"recommend":"0"
},

{
"Title":"天涯海角旅游景区",
"PicUrl":"Scene13.jpg",
    "Location":{"lat":"18.29823","lng":"109.359957"},
    "Level":"5",
    "LevelDesc":"有“天涯”“海角”的浪漫，也有“南天一柱”的壮观",
"Desc":"位于三亚市以西40 公里，是海南省历史最悠久的风景名胜。大小洞天以奇特秀丽的海景、山景、石景与洞景著称于世，被誉为“琼崖八百年第一山水名胜”。",
"KeyID":"00004108",
"DataPath":"00004108json.txt",
"recommend":"0"
},
{
"Title":"大东海旅游度假区",
"PicUrl":"Scene9.jpg",
    "Location":{"lat":"18.226899","lng":"109.531446"},
    "Level":"4",
    "LevelDesc":"水上活动的理想选择",
"Desc":"大东海三面环山，一面大海，一排排翠绿椰林环抱沙滩，冬季水温在18－22℃左右。区内海滨度假旅游设施配套齐全，建有风格各异的酒店，大型海滨广场，观光潜艇、潜水和跳水基地，有多种水上活动和沙滩运动可以玩。",
"KeyID":"00004105",
"DataPath":"00004105json.txt",
"recommend":"0"
},
{
"Title":"三亚湾旅游度假区",
"PicUrl":"Scene10.jpg",
    "Location":{"lat":"18.299131","lng":"109.395115"},
    "Level":"4",
    "LevelDesc":"看日落，体验渔家生活",
"Desc":"紧临三亚凤凰机场，绵延22公里，有著名的二十里椰梦长廊。由于生活污水，海滩和水质有所下降。只有在西边海坡度假区，沙滩质地柔软，海水洁净，适合游泳。这里最大看点是，傍晚可以观看赶海拉网，同时欣赏日落，红霞满天的美景，海边还有渔民拉网大军，可以体验渔家生活。三亚湾还有三个临海广场和一个滨海，其中海月广场离海边最近。",
"KeyID":"00004106",
"DataPath":"00004106json.txt",
"recommend":"0"
},
{
"Title":"大小洞天景区",
"PicUrl":"Scene12.jpg",
    "Location":{"lat":"18.310574","lng":"109.183546"},
    "Level":"4",
    "LevelDesc":"琼崖八百年第一山水名胜",
"Desc":"位于三亚市以西40 公里，是海南省历史最悠久的风景名胜。大小洞天以奇特秀丽的海景、山景、石景与洞景著称于世，被誉为“琼崖八百年第一山水名胜”。",
"KeyID":"00004107",
"DataPath":"00004107json.txt",
"recommend":"0"
},

{
"Title":"呀诺达雨林景区",
"PicUrl":"Scene14.jpg",
    "Location":{"lat":"18.454655","lng":"109.680195"},
    "Level":"4",
    "LevelDesc":"六大奇观贯穿雨林",
"Desc":"热带雨林遮天蔽日，流泉叠瀑倾泻而下，穿越雨林栈道，呼吸最清新的空气，畅享休闲的快乐时光。现在整个景区分为蓝月谷和梦幻谷，它们包容了，绞杀现象、空中花篮、老茎生花、高板根、藤本攀附、根包石等热带六大奇观，是海南热带雨林精品景区。",
"KeyID":"00004109",
"DataPath":"00004109json.txt",
"recommend":"0"
},
{
"Title":"南山寺景区",
"PicUrl":"Scene15.jpg",
    "Location":{"lat":"18.299366","lng":"109.193708"},
    "Level":"4",
    "LevelDesc":"佛家思想精髓之再现",
"Desc":"南山寺是一座仿古盛唐风格居山面海的大型寺院，整个气势恢宏，为中国50年来新建最大道场。园内景致与雕塑相协调，建筑与绿化相融合，既规整肃穆，又幽雅清净；名山、名寺、名僧，闪相辉映，相得益彰。寺庙气势恢宏，建有仁王殿、钟鼓楼、转轮藏等，分别供奉门神哼哈二将、释迦牟尼佛、阿弥陀佛和药师佛、十六罗汉等。从大殿出来可到不二法门广场，每个小品与建筑都体现出佛家思想精髓——“不二”理念。",
"KeyID":"00004110",
"DataPath":"00004110json.txt",
"recommend":"0"
},
{
"Title":"南田温泉",
"PicUrl":"Scene8.jpg",
    "Location":{"lat":"18.415408","lng":"109.740162"},
    "Level":"4",
    "LevelDesc":"被椰林环绕的温泉",
"Desc":"珠江南田温泉位于三亚海棠湾南田农场内，有椰林别墅和豪华客房、多功能会议室、中西餐厅和绿色茶吧、spa 美疗，各种设施一应齐全。南田温泉水温56℃上下，独有的硅酸、氟、氡“三料”温泉和其他多种对人体有益的矿物质和微量元素。这里形态、功能各异的温泉池60 个，均分布在天然椰林中，一池一景，当然也包括了有名的小鱼温泉。",
"KeyID":"00004104",
"DataPath":"00004104json.txt",
"recommend":"0"
},
{
"Title":"西岛（西玳瑁洲）景区",
"PicUrl":"Scene17.jpg",
    "Location":{"lat":"18.239901","lng":"109.379829"},
    "Level":"4",
    "LevelDesc":"被透明海水环绕的岛屿",
"Desc":"位于三亚西南海岸附近海面上，有两个东西相望的岛屿，由于远看像海龟，分别被人们称为东玳瑁洲和西玳瑁洲。西岛就是西玳瑁洲。西岛的海水透明度达10米以上，而且水产资源丰富，尤以鲍鱼、龙虾、珍珠贝、海蜇和热带观赏鱼为优。西岛海上游乐世界汇集了各种海上休闲娱乐运动，包括钓鱼潜水、摩托艇、滑水、空中拖伞、帆船、香蕉船、海漫步、玻璃船底观光等游乐项目。",
"KeyID":"00004112",
"DataPath":"00004112json.txt",
"recommend":"0"
},
{
"Title":"鹿回头景区",
"PicUrl":"Scene16.jpg",
    "Location":{"lat":"18.231815","lng":"109.507316"},
    "Level":"3",
    "LevelDesc":"观三亚全景，风光尽收眼底",
"Desc":"鹿回头公园位于三亚市西南端鹿回头半岛内，依山傍海，东与闻名遐迩的大东海相邻，南同鹿回头半岛相连，西面濒临茫茫大海，北可俯视三亚市全貌。鹿回头山顶是观三亚市全景的最佳观景点，登高远眺三亚市秀丽风景尽收眼底。夜晚公园内的激光的表演，并且也是俯瞰三亚夜景的最佳地点。",
"KeyID":"00004111",
"DataPath":"00004111json.txt",
"recommend":"0"
}

]
}