{
    "TypeName": "美食 - 推荐餐馆",
    "Infolist": [
        {
            "Title": "第一市场",
            "PicUrl": "Restaurant2.jpg",
			"Location": {
				"lat": "18.245193",
				"lng": "109.513483"
			},
            "Level": "5",
            "LevelDesc": "自选实惠的海鲜饕餮宴",
            "Desc": "这里是网上呼声很高的海鲜集散地，一般游客都喜欢到这里买好海鲜带到饭店去加工。这里的价格相对便宜，但鲜活程度不同，通常是凌晨进海鲜。比较有名的是附近的林姐海鲜加工店，加工费很实惠，也可以直接点菜。不过饭点要排队。",
            "KeyID": "00004302",
            "DataPath": "00004302json.txt"
        },
        {
            "Title": "红沙码头渔排",
			"Location": {
				"lat": "18.242824",
				"lng": "109.570353"
			},
            "Level": "5",
            "LevelDesc": "生猛海鲜，原汁原味",
            "Desc": "要说到吃“生猛”的海鲜不要错过这里，海鲜都是渔民当天打捞的活海鲜，自助形式，原汁原味。环境虽然也是排挡，但许多家渔排都连在一起，还有人唱歌，也算是可以陶冶情操。拉上会砍价的朋友，找个好天气去，一般60元 ",
            "KeyID": "00004304",
            "DataPath": "00004304json.txt"
        },
        {
            "Title": "黄流老鸭一条街",
            "PicUrl": "Restaurant5.jpg",
			"Location": {
				"lat": "18.253259",
				"lng": "109.509504"
			},
            "Level": "5",
            "LevelDesc": "新创名菜吃法多",
            "Desc": "黄流老鸭起源于海南乐东黄流镇，是海南新创名菜。三亚市解放二路相邻的胜利路、吉祥路与新凤路之间的几家餐馆是最正宗的，比较推荐“光明老鸭店”。吃法主要以白切鸭为主，此外也可煮火锅、内脏青菜菜汤、韭菜炒鸭血、白灼鸭肠、鸭胗炒苦瓜等。一般四个人点一只老鸭，再炒个青菜，外加一个汤就已经足够了。",
            "KeyID": "00004305",
            "DataPath": "00004305json.txt"
        },
        {
            "Title": "海亚餐厅",
            "PicUrl": "Restaurant6.jpg",
			"Location": {
				"lat": "18.258594",
				"lng": "109.522912"
			},
            "Level": "5",
            "LevelDesc": "吃海南名菜的首选",
            "Desc": "三亚吃海南菜，海亚餐厅是不得不推荐的。餐厅最拿手菜肴应该算是海南四大名菜，如干煸东山羊，很香，口感好，韧性好，文昌鸡也不错，还有猪脚花生汤很不错，值得推荐，花生煮得极香，没有油味，只有鲜味。海南菜的特点就是清淡，除了菜本身的味道没什么别的调料味，口味重的朋友要有心理准备哦。",
            "KeyID": "00004306",
            "DataPath": "00004306json.txt"
        },
        {
            "Title": "南山素斋",
            "PicUrl": "",
			"Location": {
				"lat": "18.294775",
				"lng": "109.379612"
			},
            "Level": "4",
            "LevelDesc": "佛教圣地品素斋",
            "Desc": "“寿比南山”是千古流传的吉祥名句。重返自然、返朴归真，渴望健康(健康食品)长寿，是人们的追求，而清淡、味美、特色鲜明的南山素斋正好满足了人们这方面的需要。在南山文化旅游区的素斋餐厅只需花费人民币30元，就能品尝到多达20余种的各款美味素斋！招牌菜有香油鳝丝、干烧鲈鱼、清炒冬虫草等。",
			"KeyID": "00004307",
            "DataPath": "00004307json.txt"
        },
        {
            "Title": "拾味馆",
			"Location": {
				"lat": "18.256760",
				"lng": "109.506777"
			},
            "Level": "4",
            "LevelDesc": "别致经济的地道小馆儿",
            "Desc": "有丰富的海南美食和海鲜美食，干净卫生。",
            "KeyID": "00004308",
            "DataPath": "00004308json.txt"
        },
        {
            "Title": "春园海鲜广场",
            "PicUrl": "Restaurant3.jpg",
			"Location": {
				"lat": "18.264805",
				"lng": "109.510994"
			},
            "Level": "4",
            "LevelDesc": "价格公道受追捧",
            "Desc": "价格实惠的大排档，有近百摊位、千张餐桌，每天傍晚到凌晨一两点钟营业，除了海鲜，还可以品尝到好多海南的特色小吃和鲜榨果汁。里面物美价廉的有6排5号，附近河西春园路还有众人追捧的雪姐海鲜、天旺海鲜等",
            "KeyID": "00004303",
            "DataPath": "00004303json.txt"
        },
        {
            "Title": "友谊路下岗职工海鲜广场",
            "PicUrl": "Restaurant1.jpg",
            "Location": {
                "lat": "18.271119",
                "lng": "109.501743"
            },
            "Level": "4",
            "LevelDesc": "最新鲜、最浪漫的海鲜排档",
            "Desc": "友谊社区海鲜广场里边有海鲜批发市场，购买后加工店会帮忙加工。与西路海鲜一条街类似，都是大排档形式。这里靠近三亚湾，吃完海鲜，然后漫步到海边踏浪，看夕阳也是足够浪漫的。这里通常下午上货，最好自己带上小称检查海鲜的重量和样子哦。比较著名的是8排2号——聪润海鲜旗舰店。网络宣传比较好，在淘宝还能买到打折券。可以用银联卡开，可以开正规的发票。",
            "KeyID": "00004301",
            "DataPath": "00004301json.txt"
        },
        {
            "Title": "明记大排挡",
            "PicUrl": "Restaurant8.jpg",
			"Location": {
				"lat": "18.246779",
				"lng": "109.513786"
			},
            "Level": "3",
            "LevelDesc": "便宜可信赖",
            "Desc": "明记大排挡一样的菜式比春园那边便宜了二三十元的加工费。明记这里以海鲜粥和炒海鲜较为出名，可在店内自由选择各类螺和蟹类。",
            "KeyID": "00004309",
            "DataPath": "00004309json.txt"
        },
        {
            "Title": "一品锅",
            "PicUrl": "Restaurant9.jpg",
			"Location": {
				"lat": "18.250963",
				"lng": "109.508333"
			},
            "Level": "3",
            "LevelDesc": "火锅吃法品海鲜",
            "Desc": "店家内的海鲜和其它海鲜店主要食法相近，也是火锅海鲜的这种吃法，当然也有其它小炒之类的。价格是明码标价的，所以不必担心挨宰。",
            "KeyID": "00004310",
            "DataPath": "00004310json.txt"
        }
    ]
}